<?xml version='1.0' encoding='utf-8'?>
<gpx xmlns="http://www.topografix.com/GPX/1/1" version="1.1" creator="Wärtsilä iSailor" author="SebrightSoftware">
	<wpt lat="50.606833" lon="-1.935000">
		<name>1A - Peveril Ledge (R)</name>
		<sym>Waypoint</sym>
		<type>Symbol</type>
		<cmt>Peveril Ledge</cmt>
		<geoidheight>0</geoidheight>
	</wpt>
	<wpt lat="50.654833" lon="-1.919000">
		<name>1B - Poole Bar No 1 (G)</name>
		<sym>Waypoint</sym>
		<type>Symbol</type>
		<cmt>Poole Bar No 1</cmt>
		<geoidheight>0</geoidheight>
	</wpt>
	<wpt lat="50.671833" lon="-1.900333">
		<name>1C - Stoneways Marine (Y)</name>
		<sym>Waypoint</sym>
		<type>Symbol</type>
		<cmt>Stoneways Marine</cmt>
		<geoidheight>0</geoidheight>
	</wpt>
	<wpt lat="50.684667" lon="-1.904333">
		<name>1D - The Rig Shop (Y)</name>
		<sym>Waypoint</sym>
		<type>Symbol</type>
		<cmt>The Rig Shop</cmt>
		<geoidheight>0</geoidheight>
	</wpt>
	<wpt lat="50.691667" lon="-1.693333">
		<name>1E - Ledge Buoy (Y)</name>
		<sym>Waypoint</sym>
		<type>Symbol</type>
		<cmt>Ledge Buoy</cmt>
		<geoidheight>0</geoidheight>
	</wpt>
	<wpt lat="50.637333" lon="-1.649667">
		<name>1F - Needles Fairway (RW)</name>
		<sym>Waypoint</sym>
		<type>Symbol</type>
		<cmt>Needles Fairway</cmt>
		<geoidheight>0</geoidheight>
	</wpt>
	<wpt lat="50.654833" lon="-1.625333">
		<name>1G - South West Shingles (R)</name>
		<sym>Waypoint</sym>
		<type>Symbol</type>
		<cmt>South West Shingles</cmt>
		<geoidheight>0</geoidheight>
	</wpt>
	<wpt lat="50.660500" lon="-1.614667">
		<name>1H - Bridge (YBY)</name>
		<sym>Waypoint</sym>
		<type>Symbol</type>
		<cmt>Bridge</cmt>
		<geoidheight>0</geoidheight>
	</wpt>
	<wpt lat="50.672833" lon="-1.600833">
		<name>1J - Shingles Elbow (R)</name>
		<sym>Waypoint</sym>
		<type>Symbol</type>
		<cmt>Shingles Elbow</cmt>
		<geoidheight>0</geoidheight>
	</wpt>
	<wpt lat="50.711500" lon="-1.592000">
		<name>1K - North Head (G)</name>
		<sym>Waypoint</sym>
		<type>Symbol</type>
		<cmt>North Head</cmt>
		<geoidheight>0</geoidheight>
	</wpt>
	<wpt lat="50.662167" lon="-1.591667">
		<name>1L - Needles Lighthouse (RW)</name>
		<sym>Waypoint</sym>
		<type>Symbol</type>
		<cmt>Needles Lighthouse</cmt>
		<geoidheight>0</geoidheight>
	</wpt>
	<wpt lat="50.691333" lon="-1.559167">
		<name>1M - Warden (G)</name>
		<sym>Waypoint</sym>
		<type>Symbol</type>
		<cmt>Warden</cmt>
		<geoidheight>0</geoidheight>
	</wpt>
	<wpt lat="50.699333" lon="-1.556833">
		<name>1N - North East Shingles (BYB)</name>
		<sym>Waypoint</sym>
		<type>Symbol</type>
		<cmt>North East Shingles</cmt>
		<geoidheight>0</geoidheight>
	</wpt>
	<wpt lat="50.676333" lon="-1.920500">
		<name>11 - East Hook (R)</name>
		<sym>Waypoint</sym>
		<type>Symbol</type>
		<cmt>East Hook</cmt>
		<geoidheight>0</geoidheight>
	</wpt>
	<wpt lat="50.710000" lon="-1.680000">
		<name>12 - Mid Bay (Y)</name>
		<sym>Waypoint</sym>
		<type>Symbol</type>
		<cmt>Mid Bay</cmt>
		<geoidheight>0</geoidheight>
	</wpt>
	<wpt lat="50.713167" lon="-1.542167">
		<name>2A - Chewton Glen (Y)</name>
		<sym>Waypoint</sym>
		<type>Symbol</type>
		<cmt>Chewton Glen</cmt>
		<geoidheight>0</geoidheight>
	</wpt>
	<wpt lat="50.723000" lon="-1.525667">
		<name>2B - Dunford (Y)</name>
		<sym>Waypoint</sym>
		<type>Symbol</type>
		<cmt>Dunford</cmt>
		<geoidheight>0</geoidheight>
	</wpt>
	<wpt lat="50.730500" lon="-1.514333">
		<name>2C - Colten (Y)</name>
		<sym>Waypoint</sym>
		<type>Symbol</type>
		<cmt>Colten</cmt>
		<geoidheight>0</geoidheight>
	</wpt>
	<wpt lat="50.736667" lon="-1.487000">
		<name>2F - Berthon (Y)</name>
		<sym>Waypoint</sym>
		<type>Symbol</type>
		<cmt>Berthon</cmt>
		<geoidheight>0</geoidheight>
	</wpt>
	<wpt lat="50.738333" lon="-1.469333">
		<name>2H - Draycotts (Y)</name>
		<sym>Waypoint</sym>
		<type>Symbol</type>
		<cmt>Draycotts</cmt>
		<geoidheight>0</geoidheight>
	</wpt>
	<wpt lat="50.751833" lon="-1.455667">
		<name>2J - Zwerver  (Y)</name>
		<sym>Waypoint</sym>
		<type>Symbol</type>
		<cmt>Zwerver </cmt>
		<geoidheight>0</geoidheight>
	</wpt>
	<wpt lat="50.747167" lon="-1.434833">
		<name>2K - Cowes Radio (Y)</name>
		<sym>Waypoint</sym>
		<type>Symbol</type>
		<cmt>Cowes Radio</cmt>
		<geoidheight>0</geoidheight>
	</wpt>
	<wpt lat="50.757167" lon="-1.431500">
		<name>2R - Powder Byrne (Y)</name>
		<sym>Waypoint</sym>
		<type>Symbol</type>
		<cmt>Powder Byrne</cmt>
		<geoidheight>0</geoidheight>
	</wpt>
	<wpt lat="50.718333" lon="-1.514167">
		<name>2T - Lymington Bank (R)</name>
		<sym>Waypoint</sym>
		<type>Symbol</type>
		<cmt>Lymington Bank</cmt>
		<geoidheight>0</geoidheight>
	</wpt>
	<wpt lat="50.721667" lon="-1.521667">
		<name>2V - V  (Y)</name>
		<sym>Waypoint</sym>
		<type>Symbol</type>
		<cmt>V </cmt>
		<geoidheight>0</geoidheight>
	</wpt>
	<wpt lat="50.737167" lon="-1.456167">
		<name>2X - Solent Bank (R)</name>
		<sym>Waypoint</sym>
		<type>Symbol</type>
		<cmt>Solent Bank</cmt>
		<geoidheight>0</geoidheight>
	</wpt>
	<wpt lat="50.708833" lon="-1.523833">
		<name>20 - Sconce (BY)</name>
		<sym>Waypoint</sym>
		<type>Symbol</type>
		<cmt>Sconce</cmt>
		<geoidheight>0</geoidheight>
	</wpt>
	<wpt lat="50.709500" lon="-1.509833">
		<name>21 - Black Rock (G)</name>
		<sym>Waypoint</sym>
		<type>Symbol</type>
		<cmt>Black Rock</cmt>
		<geoidheight>0</geoidheight>
	</wpt>
	<wpt lat="50.714333" lon="-1.490000">
		<name>22 - Charles Stanley (Y)</name>
		<sym>Waypoint</sym>
		<type>Symbol</type>
		<cmt>Charles Stanley</cmt>
		<geoidheight>0</geoidheight>
	</wpt>
	<wpt lat="50.714333" lon="-1.473667">
		<name>24 - Hall Hunter (Y)</name>
		<sym>Waypoint</sym>
		<type>Symbol</type>
		<cmt>Hall Hunter</cmt>
		<geoidheight>0</geoidheight>
	</wpt>
	<wpt lat="50.719167" lon="-1.458167">
		<name>25 - Caldwells Estate Agents (Y)</name>
		<sym>Waypoint</sym>
		<type>Symbol</type>
		<cmt>Caldwells Estate Agents</cmt>
		<geoidheight>0</geoidheight>
	</wpt>
	<wpt lat="50.731167" lon="-1.436333">
		<name>26 - Hamstead Ledge (G)</name>
		<sym>Waypoint</sym>
		<type>Symbol</type>
		<cmt>Hamstead Ledge</cmt>
		<geoidheight>0</geoidheight>
	</wpt>
	<wpt lat="50.716167" lon="-1.469333">
		<name>27 - Generation (Y)</name>
		<sym>Waypoint</sym>
		<type>Symbol</type>
		<cmt>Generation</cmt>
		<geoidheight>0</geoidheight>
	</wpt>
	<wpt lat="50.754000" lon="-1.401500">
		<name>3A - West Lepe (R)</name>
		<sym>Waypoint</sym>
		<type>Symbol</type>
		<cmt>West Lepe</cmt>
		<geoidheight>0</geoidheight>
	</wpt>
	<wpt lat="50.739333" lon="-1.396667">
		<name>3B - Shoosmiths (Y)</name>
		<sym>Waypoint</sym>
		<type>Symbol</type>
		<cmt>Shoosmiths</cmt>
		<geoidheight>0</geoidheight>
	</wpt>
	<wpt lat="50.760667" lon="-1.385333">
		<name>3C - craftinsure.com (Y)</name>
		<sym>Waypoint</sym>
		<type>Symbol</type>
		<cmt>craftinsure.com</cmt>
		<geoidheight>0</geoidheight>
	</wpt>
	<wpt lat="50.741833" lon="-1.384000">
		<name>3D - Salt Mead (G)</name>
		<sym>Waypoint</sym>
		<type>Symbol</type>
		<cmt>Salt Mead</cmt>
		<geoidheight>0</geoidheight>
	</wpt>
	<wpt lat="50.768833" lon="-1.369833">
		<name>3E - The Boss (Y)</name>
		<sym>Waypoint</sym>
		<type>Symbol</type>
		<cmt>The Boss</cmt>
		<geoidheight>0</geoidheight>
	</wpt>
	<wpt lat="50.745333" lon="-1.365833">
		<name>3F - Elephant Boatyard (Y)</name>
		<sym>Waypoint</sym>
		<type>Symbol</type>
		<cmt>Elephant Boatyard</cmt>
		<geoidheight>0</geoidheight>
	</wpt>
	<wpt lat="50.776333" lon="-1.357667">
		<name>3G - Kilburn &amp; Strode Patents &amp; TMs (Y)</name>
		<sym>Waypoint</sym>
		<type>Symbol</type>
		<cmt>Kilburn &amp; Strode Patents &amp; TMs</cmt>
		<geoidheight>0</geoidheight>
	</wpt>
	<wpt lat="50.765500" lon="-1.351167">
		<name>3H - East Lepe (R)</name>
		<sym>Waypoint</sym>
		<type>Symbol</type>
		<cmt>East Lepe</cmt>
		<geoidheight>0</geoidheight>
	</wpt>
	<wpt lat="50.779667" lon="-1.344000">
		<name>3K - Lepe Spit (YB)</name>
		<sym>Waypoint</sym>
		<type>Symbol</type>
		<cmt>Lepe Spit</cmt>
		<geoidheight>0</geoidheight>
	</wpt>
	<wpt lat="50.758500" lon="-1.343167">
		<name>3L - Gurnard Ledge (G)</name>
		<sym>Waypoint</sym>
		<type>Symbol</type>
		<cmt>Gurnard Ledge</cmt>
		<geoidheight>0</geoidheight>
	</wpt>
	<wpt lat="50.784500" lon="-1.331333">
		<name>3N - Greenings Payments  (Y)</name>
		<sym>Waypoint</sym>
		<type>Symbol</type>
		<cmt>Greenings Payments </cmt>
		<geoidheight>0</geoidheight>
	</wpt>
	<wpt lat="50.761333" lon="-1.333000">
		<name>3P - Cowes Yacht Haven (Y)</name>
		<sym>Waypoint</sym>
		<type>Symbol</type>
		<cmt>Cowes Yacht Haven</cmt>
		<geoidheight>0</geoidheight>
	</wpt>
	<wpt lat="50.766167" lon="-1.324167">
		<name>3Q - Royal Cork (Y)</name>
		<sym>Waypoint</sym>
		<type>Symbol</type>
		<cmt>Royal Cork</cmt>
		<geoidheight>0</geoidheight>
	</wpt>
	<wpt lat="50.784333" lon="-1.323667">
		<name>3R - North East Gurnard  (R)</name>
		<sym>Waypoint</sym>
		<type>Symbol</type>
		<cmt>North East Gurnard </cmt>
		<geoidheight>0</geoidheight>
	</wpt>
	<wpt lat="50.796833" lon="-1.320833">
		<name>3S - TackGybeSet (Y)</name>
		<sym>Waypoint</sym>
		<type>Symbol</type>
		<cmt>TackGybeSet</cmt>
		<geoidheight>0</geoidheight>
	</wpt>
	<wpt lat="50.768333" lon="-1.314500">
		<name>3T - Cowes Harbour (Y)</name>
		<sym>Waypoint</sym>
		<type>Symbol</type>
		<cmt>Cowes Harbour</cmt>
		<geoidheight>0</geoidheight>
	</wpt>
	<wpt lat="50.770333" lon="-1.314000">
		<name>3U - Gurnard (BY)</name>
		<sym>Waypoint</sym>
		<type>Symbol</type>
		<cmt>Gurnard</cmt>
		<geoidheight>0</geoidheight>
	</wpt>
	<wpt lat="50.786667" lon="-1.310833">
		<name>3V - West Bramble  (YBY)</name>
		<sym>Waypoint</sym>
		<type>Symbol</type>
		<cmt>West Bramble </cmt>
		<geoidheight>0</geoidheight>
	</wpt>
	<wpt lat="50.786667" lon="-1.309167">
		<name>3W - Williams Shipping  (Y)</name>
		<sym>Waypoint</sym>
		<type>Symbol</type>
		<cmt>Williams Shipping </cmt>
		<geoidheight>0</geoidheight>
	</wpt>
	<wpt lat="50.768333" lon="-1.307167">
		<name>3X - Donna (Y)</name>
		<sym>Waypoint</sym>
		<type>Symbol</type>
		<cmt>Donna</cmt>
		<geoidheight>0</geoidheight>
	</wpt>
	<wpt lat="50.790500" lon="-1.297333">
		<name>3Y - West Knoll (Y)</name>
		<sym>Waypoint</sym>
		<type>Symbol</type>
		<cmt>West Knoll</cmt>
		<geoidheight>0</geoidheight>
	</wpt>
	<wpt lat="50.771833" lon="-1.295833">
		<name>3Z - Trinity House Buoy (Y)</name>
		<sym>Waypoint</sym>
		<type>Symbol</type>
		<cmt>Trinity House Buoy</cmt>
		<geoidheight>0</geoidheight>
	</wpt>
	<wpt lat="50.785333" lon="-1.295333">
		<name>30 - RORC  (Y)</name>
		<sym>Waypoint</sym>
		<type>Symbol</type>
		<cmt>RORC </cmt>
		<geoidheight>0</geoidheight>
	</wpt>
	<wpt lat="50.783000" lon="-1.295333">
		<name>31 - South Bramble (G)</name>
		<sym>Waypoint</sym>
		<type>Symbol</type>
		<cmt>South Bramble</cmt>
		<geoidheight>0</geoidheight>
	</wpt>
	<wpt lat="50.773500" lon="-1.292667">
		<name>33 - Prince Consort (BY)</name>
		<sym>Waypoint</sym>
		<type>Symbol</type>
		<cmt>Prince Consort</cmt>
		<geoidheight>0</geoidheight>
	</wpt>
	<wpt lat="50.769167" lon="-1.286667">
		<name>34 - Cowes Corinthian (Y)</name>
		<sym>Waypoint</sym>
		<type>Symbol</type>
		<cmt>Cowes Corinthian</cmt>
		<geoidheight>0</geoidheight>
	</wpt>
	<wpt lat="50.770000" lon="-1.295833">
		<name>39 - Snowden (Y)</name>
		<sym>Waypoint</sym>
		<type>Symbol</type>
		<cmt>Snowden</cmt>
		<geoidheight>0</geoidheight>
	</wpt>
	<wpt lat="50.817500" lon="-1.294167">
		<name>4A - Reach  (G)</name>
		<sym>Waypoint</sym>
		<type>Symbol</type>
		<cmt>Reach </cmt>
		<geoidheight>0</geoidheight>
	</wpt>
	<wpt lat="50.825833" lon="-1.293667">
		<name>4B - Coronation (Y)</name>
		<sym>Waypoint</sym>
		<type>Symbol</type>
		<cmt>Coronation</cmt>
		<geoidheight>0</geoidheight>
	</wpt>
	<wpt lat="50.820167" lon="-1.291000">
		<name>4C - Fumesy (Y)</name>
		<sym>Waypoint</sym>
		<type>Symbol</type>
		<cmt>Fumesy</cmt>
		<geoidheight>0</geoidheight>
	</wpt>
	<wpt lat="50.807333" lon="-1.283833">
		<name>4D - Calshot  (BY)</name>
		<sym>Waypoint</sym>
		<type>Symbol</type>
		<cmt>Calshot </cmt>
		<geoidheight>0</geoidheight>
	</wpt>
	<wpt lat="50.794500" lon="-1.283333">
		<name>4E - Jane  (Y)</name>
		<sym>Waypoint</sym>
		<type>Symbol</type>
		<cmt>Jane </cmt>
		<geoidheight>0</geoidheight>
	</wpt>
	<wpt lat="50.786667" lon="-1.283333">
		<name>4F - Royal Thames (Y)</name>
		<sym>Waypoint</sym>
		<type>Symbol</type>
		<cmt>Royal Thames</cmt>
		<geoidheight>0</geoidheight>
	</wpt>
	<wpt lat="50.824167" lon="-1.281833">
		<name>4G - Cutter  (Y)</name>
		<sym>Waypoint</sym>
		<type>Symbol</type>
		<cmt>Cutter </cmt>
		<geoidheight>0</geoidheight>
	</wpt>
	<wpt lat="50.799333" lon="-1.280500">
		<name>4H - East Knoll (G)</name>
		<sym>Waypoint</sym>
		<type>Symbol</type>
		<cmt>East Knoll</cmt>
		<geoidheight>0</geoidheight>
	</wpt>
	<wpt lat="50.810500" lon="-1.276167">
		<name>4J - hamblewinterseries.com  (Y)</name>
		<sym>Waypoint</sym>
		<type>Symbol</type>
		<cmt>hamblewinterseries.com </cmt>
		<geoidheight>0</geoidheight>
	</wpt>
	<wpt lat="50.769167" lon="-1.277500">
		<name>4K - Royal London YC (Y)</name>
		<sym>Waypoint</sym>
		<type>Symbol</type>
		<cmt>Royal London YC</cmt>
		<geoidheight>0</geoidheight>
	</wpt>
	<wpt lat="50.817167" lon="-1.274833">
		<name>4L - William  (Y)</name>
		<sym>Waypoint</sym>
		<type>Symbol</type>
		<cmt>William </cmt>
		<geoidheight>0</geoidheight>
	</wpt>
	<wpt lat="50.801167" lon="-1.266667">
		<name>4M - Hill Head (R)</name>
		<sym>Waypoint</sym>
		<type>Symbol</type>
		<cmt>Hill Head</cmt>
		<geoidheight>0</geoidheight>
	</wpt>
	<wpt lat="50.787833" lon="-1.265000">
		<name>4N - YachtDataBank (Y)</name>
		<sym>Waypoint</sym>
		<type>Symbol</type>
		<cmt>YachtDataBank</cmt>
		<geoidheight>0</geoidheight>
	</wpt>
	<wpt lat="50.774667" lon="-1.263167">
		<name>4P - West Ryde Middle (YBY)</name>
		<sym>Waypoint</sym>
		<type>Symbol</type>
		<cmt>West Ryde Middle</cmt>
		<geoidheight>0</geoidheight>
	</wpt>
	<wpt lat="50.807667" lon="-1.262000">
		<name>4Q - John Fisher (Y)</name>
		<sym>Waypoint</sym>
		<type>Symbol</type>
		<cmt>John Fisher</cmt>
		<geoidheight>0</geoidheight>
	</wpt>
	<wpt lat="50.819667" lon="-1.261833">
		<name>4R - Darling Buoy  (Y)</name>
		<sym>Waypoint</sym>
		<type>Symbol</type>
		<cmt>Darling Buoy </cmt>
		<geoidheight>0</geoidheight>
	</wpt>
	<wpt lat="50.814333" lon="-1.257167">
		<name>4S - Royal Southern (Y)</name>
		<sym>Waypoint</sym>
		<type>Symbol</type>
		<cmt>Royal Southern</cmt>
		<geoidheight>0</geoidheight>
	</wpt>
	<wpt lat="50.766167" lon="-1.258500">
		<name>4T - Norris  (R)</name>
		<sym>Waypoint</sym>
		<type>Symbol</type>
		<cmt>Norris </cmt>
		<geoidheight>0</geoidheight>
	</wpt>
	<wpt lat="50.773833" lon="-1.251500">
		<name>4U - Goodall Roofing (Y)</name>
		<sym>Waypoint</sym>
		<type>Symbol</type>
		<cmt>Goodall Roofing</cmt>
		<geoidheight>0</geoidheight>
	</wpt>
	<wpt lat="50.802167" lon="-1.244000">
		<name>4V - Hamble Yacht Services (Y)</name>
		<sym>Waypoint</sym>
		<type>Symbol</type>
		<cmt>Hamble Yacht Services</cmt>
		<geoidheight>0</geoidheight>
	</wpt>
	<wpt lat="50.788833" lon="-1.243167">
		<name>4W - Ancasta (Y)</name>
		<sym>Waypoint</sym>
		<type>Symbol</type>
		<cmt>Ancasta</cmt>
		<geoidheight>0</geoidheight>
	</wpt>
	<wpt lat="50.758833" lon="-1.239833">
		<name>4X - Colette (Y)</name>
		<sym>Waypoint</sym>
		<type>Symbol</type>
		<cmt>Colette</cmt>
		<geoidheight>0</geoidheight>
	</wpt>
	<wpt lat="50.776833" lon="-1.238500">
		<name>4Y - North Ryde Middle (R)</name>
		<sym>Waypoint</sym>
		<type>Symbol</type>
		<cmt>North Ryde Middle</cmt>
		<geoidheight>0</geoidheight>
	</wpt>
	<wpt lat="50.768833" lon="-1.236000">
		<name>4Z - South Ryde Middle (G)</name>
		<sym>Waypoint</sym>
		<type>Symbol</type>
		<cmt>South Ryde Middle</cmt>
		<geoidheight>0</geoidheight>
	</wpt>
	<wpt lat="50.794333" lon="-1.227500">
		<name>40 - Howden Fastnet (Y)</name>
		<sym>Waypoint</sym>
		<type>Symbol</type>
		<cmt>Howden Fastnet</cmt>
		<geoidheight>0</geoidheight>
	</wpt>
	<wpt lat="50.787167" lon="-1.227333">
		<name>41 - East Bramble (BYB)</name>
		<sym>Waypoint</sym>
		<type>Symbol</type>
		<cmt>East Bramble</cmt>
		<geoidheight>0</geoidheight>
	</wpt>
	<wpt lat="50.758167" lon="-1.222500">
		<name>42 - Peel Bank (R)</name>
		<sym>Waypoint</sym>
		<type>Symbol</type>
		<cmt>Peel Bank</cmt>
		<geoidheight>0</geoidheight>
	</wpt>
	<wpt lat="50.769333" lon="-1.218167">
		<name>43 - Little Ship Club (Y)</name>
		<sym>Waypoint</sym>
		<type>Symbol</type>
		<cmt>Little Ship Club</cmt>
		<geoidheight>0</geoidheight>
	</wpt>
	<wpt lat="50.788500" lon="-1.201667">
		<name>44 - Royal Yacht Squadron (Y)</name>
		<sym>Waypoint</sym>
		<type>Symbol</type>
		<cmt>Royal Yacht Squadron</cmt>
		<geoidheight>0</geoidheight>
	</wpt>
	<wpt lat="50.765500" lon="-1.201667">
		<name>45 - South East Ryde Middle (YB)</name>
		<sym>Waypoint</sym>
		<type>Symbol</type>
		<cmt>South East Ryde Middle</cmt>
		<geoidheight>0</geoidheight>
	</wpt>
	<wpt lat="50.770167" lon="-1.198000">
		<name>46 - North East Ryde Middle (R)</name>
		<sym>Waypoint</sym>
		<type>Symbol</type>
		<cmt>North East Ryde Middle</cmt>
		<geoidheight>0</geoidheight>
	</wpt>
	<wpt lat="50.795000" lon="-1.254167">
		<name>47 - Contessa 32 Class (Y)</name>
		<sym>Waypoint</sym>
		<type>Symbol</type>
		<cmt>Contessa 32 Class</cmt>
		<geoidheight>0</geoidheight>
	</wpt>
	<wpt lat="50.803500" lon="-1.278000">
		<name>48 - Paul Heys  (Y)</name>
		<sym>Waypoint</sym>
		<type>Symbol</type>
		<cmt>Paul Heys </cmt>
		<geoidheight>0</geoidheight>
	</wpt>
	<wpt lat="50.750500" lon="-1.198167">
		<name>5A - Quarr (Y)</name>
		<sym>Waypoint</sym>
		<type>Symbol</type>
		<cmt>Quarr</cmt>
		<geoidheight>0</geoidheight>
	</wpt>
	<wpt lat="50.758167" lon="-1.186833">
		<name>5B - Mother Bank (R)</name>
		<sym>Waypoint</sym>
		<type>Symbol</type>
		<cmt>Mother Bank</cmt>
		<geoidheight>0</geoidheight>
	</wpt>
	<wpt lat="50.776167" lon="-1.182500">
		<name>5C - Browndown (G)</name>
		<sym>Waypoint</sym>
		<type>Symbol</type>
		<cmt>Browndown</cmt>
		<geoidheight>0</geoidheight>
	</wpt>
	<wpt lat="50.753000" lon="-1.160833">
		<name>5D - Kemps Quay (Y)</name>
		<sym>Waypoint</sym>
		<type>Symbol</type>
		<cmt>Kemps Quay</cmt>
		<geoidheight>0</geoidheight>
	</wpt>
	<wpt lat="50.771000" lon="-1.146000">
		<name>5E - Greenings FinTech (Y)</name>
		<sym>Waypoint</sym>
		<type>Symbol</type>
		<cmt>Greenings FinTech</cmt>
		<geoidheight>0</geoidheight>
	</wpt>
	<wpt lat="50.755500" lon="-1.137167">
		<name>5F - North Sturbridge (BY)</name>
		<sym>Waypoint</sym>
		<type>Symbol</type>
		<cmt>North Sturbridge</cmt>
		<geoidheight>0</geoidheight>
	</wpt>
	<wpt lat="50.773667" lon="-1.131667">
		<name>5G - Baker Trayte Marine (Y)</name>
		<sym>Waypoint</sym>
		<type>Symbol</type>
		<cmt>Baker Trayte Marine</cmt>
		<geoidheight>0</geoidheight>
	</wpt>
	<wpt lat="50.780333" lon="-1.122500">
		<name>5H - Portsmouth SC (Y)</name>
		<sym>Waypoint</sym>
		<type>Symbol</type>
		<cmt>Portsmouth SC</cmt>
		<geoidheight>0</geoidheight>
	</wpt>
	<wpt lat="50.776833" lon="-1.121500">
		<name>5J - KB Dry Stack (Y)</name>
		<sym>Waypoint</sym>
		<type>Symbol</type>
		<cmt>KB Dry Stack</cmt>
		<geoidheight>0</geoidheight>
	</wpt>
	<wpt lat="50.784667" lon="-1.113000">
		<name>5K - Suffolk Sails (Y)</name>
		<sym>Waypoint</sym>
		<type>Symbol</type>
		<cmt>Suffolk Sails</cmt>
		<geoidheight>0</geoidheight>
	</wpt>
	<wpt lat="50.768500" lon="-1.108667">
		<name>5M - Gleeds  (Y)</name>
		<sym>Waypoint</sym>
		<type>Symbol</type>
		<cmt>Gleeds </cmt>
		<geoidheight>0</geoidheight>
	</wpt>
	<wpt lat="50.763333" lon="-1.103333">
		<name>5N - Mary Rose (Y)</name>
		<sym>Waypoint</sym>
		<type>Symbol</type>
		<cmt>Mary Rose</cmt>
		<geoidheight>0</geoidheight>
	</wpt>
	<wpt lat="50.772667" lon="-1.101333">
		<name>5P - Linington (Y)</name>
		<sym>Waypoint</sym>
		<type>Symbol</type>
		<cmt>Linington</cmt>
		<geoidheight>0</geoidheight>
	</wpt>
	<wpt lat="50.757333" lon="-1.091000">
		<name>5Q - Outer Spit  (YB)</name>
		<sym>Waypoint</sym>
		<type>Symbol</type>
		<cmt>Outer Spit </cmt>
		<geoidheight>0</geoidheight>
	</wpt>
	<wpt lat="50.780167" lon="-1.173333">
		<name>50 - Fairhall West  (Y)</name>
		<sym>Waypoint</sym>
		<type>Symbol</type>
		<cmt>Fairhall West </cmt>
		<geoidheight>0</geoidheight>
	</wpt>
	<wpt lat="50.776667" lon="-1.164167">
		<name>51 - SBSC Central  (Y)</name>
		<sym>Waypoint</sym>
		<type>Symbol</type>
		<cmt>SBSC Central </cmt>
		<geoidheight>0</geoidheight>
	</wpt>
	<wpt lat="50.740000" lon="-1.095000">
		<name>6A - No Man's Land Fort (B)</name>
		<sym>Waypoint</sym>
		<type>Symbol</type>
		<cmt>No Man's Land Fort</cmt>
		<geoidheight>0</geoidheight>
	</wpt>
	<wpt lat="50.750167" lon="-1.072333">
		<name>6B - Horse Sand Fort (B)</name>
		<sym>Waypoint</sym>
		<type>Symbol</type>
		<cmt>Horse Sand Fort</cmt>
		<geoidheight>0</geoidheight>
	</wpt>
	<wpt lat="50.731167" lon="-1.066500">
		<name>6C - Warner (R)</name>
		<sym>Waypoint</sym>
		<type>Symbol</type>
		<cmt>Warner</cmt>
		<geoidheight>0</geoidheight>
	</wpt>
	<wpt lat="50.737667" lon="-1.064667">
		<name>6D - Horse Elbow (G)</name>
		<sym>Waypoint</sym>
		<type>Symbol</type>
		<cmt>Horse Elbow</cmt>
		<geoidheight>0</geoidheight>
	</wpt>
	<wpt lat="50.669333" lon="-1.060833">
		<name>6E - West Princessa (YBY)</name>
		<sym>Waypoint</sym>
		<type>Symbol</type>
		<cmt>West Princessa</cmt>
		<geoidheight>0</geoidheight>
	</wpt>
	<wpt lat="50.685833" lon="-1.046833">
		<name>6F - Bembridge Ledge Buoy (BYB)</name>
		<sym>Waypoint</sym>
		<type>Symbol</type>
		<cmt>Bembridge Ledge Buoy</cmt>
		<geoidheight>0</geoidheight>
	</wpt>
	<wpt lat="50.722667" lon="-1.040167">
		<name>6G - St Helens Buoy (R)</name>
		<sym>Waypoint</sym>
		<type>Symbol</type>
		<cmt>St Helens Buoy</cmt>
		<geoidheight>0</geoidheight>
	</wpt>
	<wpt lat="50.728167" lon="-1.031333">
		<name>6H - Dean Elbow (G)</name>
		<sym>Waypoint</sym>
		<type>Symbol</type>
		<cmt>Dean Elbow</cmt>
		<geoidheight>0</geoidheight>
	</wpt>
	<wpt lat="50.714333" lon="-1.013333">
		<name>6J - Nab East (R)</name>
		<sym>Waypoint</sym>
		<type>Symbol</type>
		<cmt>Nab East</cmt>
		<geoidheight>0</geoidheight>
	</wpt>
	<wpt lat="50.720500" lon="-1.003833">
		<name>6K - Horse Tail (G)</name>
		<sym>Waypoint</sym>
		<type>Symbol</type>
		<cmt>Horse Tail</cmt>
		<geoidheight>0</geoidheight>
	</wpt>
	<wpt lat="50.751667" lon="-1.001667">
		<name>6L - Winner (YB)</name>
		<sym>Waypoint</sym>
		<type>Symbol</type>
		<cmt>Winner</cmt>
		<geoidheight>0</geoidheight>
	</wpt>
	<wpt lat="50.710500" lon="-0.991500">
		<name>6M - Nab End (R)</name>
		<sym>Waypoint</sym>
		<type>Symbol</type>
		<cmt>Nab End</cmt>
		<geoidheight>0</geoidheight>
	</wpt>
	<wpt lat="50.716500" lon="-0.986167">
		<name>6N - Dean Tail (G)</name>
		<sym>Waypoint</sym>
		<type>Symbol</type>
		<cmt>Dean Tail</cmt>
		<geoidheight>0</geoidheight>
	</wpt>
	<wpt lat="50.697333" lon="-0.974833">
		<name>6P - New Grounds (BYB)</name>
		<sym>Waypoint</sym>
		<type>Symbol</type>
		<cmt>New Grounds</cmt>
		<geoidheight>0</geoidheight>
	</wpt>
	<wpt lat="50.668000" lon="-0.952500">
		<name>6R - Nab Tower (B)</name>
		<sym>Waypoint</sym>
		<type>Symbol</type>
		<cmt>Nab Tower</cmt>
		<geoidheight>0</geoidheight>
	</wpt>
	<wpt lat="50.640500" lon="-0.961667">
		<name>6S - Outer Nab No 2 (BYB)</name>
		<sym>Waypoint</sym>
		<type>Symbol</type>
		<cmt>Outer Nab No 2</cmt>
		<geoidheight>0</geoidheight>
	</wpt>
	<wpt lat="50.884500" lon="-1.402667">
		<name>7A - Gymp (R)</name>
		<sym>Waypoint</sym>
		<type>Symbol</type>
		<cmt>Gymp</cmt>
		<geoidheight>0</geoidheight>
	</wpt>
	<wpt lat="50.880500" lon="-1.396833">
		<name>7B - Hythe Knock (R)</name>
		<sym>Waypoint</sym>
		<type>Symbol</type>
		<cmt>Hythe Knock</cmt>
		<geoidheight>0</geoidheight>
	</wpt>
	<wpt lat="50.883333" lon="-1.390667">
		<name>7C - No 1 Swinging (G)</name>
		<sym>Waypoint</sym>
		<type>Symbol</type>
		<cmt>No 1 Swinging</cmt>
		<geoidheight>0</geoidheight>
	</wpt>
	<wpt lat="50.878500" lon="-1.387667">
		<name>7D - Weston Shelf (G)</name>
		<sym>Waypoint</sym>
		<type>Symbol</type>
		<cmt>Weston Shelf</cmt>
		<geoidheight>0</geoidheight>
	</wpt>
	<wpt lat="50.870667" lon="-1.386333">
		<name>7E - Hythe 5 (Y)</name>
		<sym>Waypoint</sym>
		<type>Symbol</type>
		<cmt>Hythe 5</cmt>
		<geoidheight>0</geoidheight>
	</wpt>
	<wpt lat="50.882667" lon="-1.384333">
		<name>7F - Jib  (Y)</name>
		<sym>Waypoint</sym>
		<type>Symbol</type>
		<cmt>Jib </cmt>
		<geoidheight>0</geoidheight>
	</wpt>
	<wpt lat="50.875833" lon="-1.381667">
		<name>7H - Moorhead (G)</name>
		<sym>Waypoint</sym>
		<type>Symbol</type>
		<cmt>Moorhead</cmt>
		<geoidheight>0</geoidheight>
	</wpt>
	<wpt lat="50.870000" lon="-1.380833">
		<name>7J - Deans Elbow (R)</name>
		<sym>Waypoint</sym>
		<type>Symbol</type>
		<cmt>Deans Elbow</cmt>
		<geoidheight>0</geoidheight>
	</wpt>
	<wpt lat="50.871833" lon="-1.378833">
		<name>7K - NW Netley (G)</name>
		<sym>Waypoint</sym>
		<type>Symbol</type>
		<cmt>NW Netley</cmt>
		<geoidheight>0</geoidheight>
	</wpt>
	<wpt lat="50.877667" lon="-1.373667">
		<name>7L - Hovercraft 4 (Y)</name>
		<sym>Waypoint</sym>
		<type>Symbol</type>
		<cmt>Hovercraft 4</cmt>
		<geoidheight>0</geoidheight>
	</wpt>
	<wpt lat="50.862667" lon="-1.371333">
		<name>7N - SWSA (Y)</name>
		<sym>Waypoint</sym>
		<type>Symbol</type>
		<cmt>SWSA</cmt>
		<geoidheight>0</geoidheight>
	</wpt>
	<wpt lat="50.873833" lon="-1.366833">
		<name>7P - Hovercraft 3 (Y)</name>
		<sym>Waypoint</sym>
		<type>Symbol</type>
		<cmt>Hovercraft 3</cmt>
		<geoidheight>0</geoidheight>
	</wpt>
	<wpt lat="50.867167" lon="-1.363500">
		<name>7Q - Netley (G)</name>
		<sym>Waypoint</sym>
		<type>Symbol</type>
		<cmt>Netley</cmt>
		<geoidheight>0</geoidheight>
	</wpt>
	<wpt lat="50.859833" lon="-1.360833">
		<name>7R - Lains Lake (R)</name>
		<sym>Waypoint</sym>
		<type>Symbol</type>
		<cmt>Lains Lake</cmt>
		<geoidheight>0</geoidheight>
	</wpt>
	<wpt lat="50.856667" lon="-1.359833">
		<name>7S - Deans Lake (R)</name>
		<sym>Waypoint</sym>
		<type>Symbol</type>
		<cmt>Deans Lake</cmt>
		<geoidheight>0</geoidheight>
	</wpt>
	<wpt lat="50.870167" lon="-1.359667">
		<name>7T - Hovercraft 2 (Y)</name>
		<sym>Waypoint</sym>
		<type>Symbol</type>
		<cmt>Hovercraft 2</cmt>
		<geoidheight>0</geoidheight>
	</wpt>
	<wpt lat="50.861333" lon="-1.358667">
		<name>7U - Hound (G)</name>
		<sym>Waypoint</sym>
		<type>Symbol</type>
		<cmt>Hound</cmt>
		<geoidheight>0</geoidheight>
	</wpt>
	<wpt lat="50.866500" lon="-1.352667">
		<name>7V - Hovercraft 1 (Y)</name>
		<sym>Waypoint</sym>
		<type>Symbol</type>
		<cmt>Hovercraft 1</cmt>
		<geoidheight>0</geoidheight>
	</wpt>
	<wpt lat="50.858833" lon="-1.347000">
		<name>7W - After Barn (G)</name>
		<sym>Waypoint</sym>
		<type>Symbol</type>
		<cmt>After Barn</cmt>
		<geoidheight>0</geoidheight>
	</wpt>
	<wpt lat="50.850333" lon="-1.342333">
		<name>7Y - Cadland (R)</name>
		<sym>Waypoint</sym>
		<type>Symbol</type>
		<cmt>Cadland</cmt>
		<geoidheight>0</geoidheight>
	</wpt>
	<wpt lat="50.851833" lon="-1.339667">
		<name>7Z - Greenland (G)</name>
		<sym>Waypoint</sym>
		<type>Symbol</type>
		<cmt>Greenland</cmt>
		<geoidheight>0</geoidheight>
	</wpt>
	<wpt lat="50.843500" lon="-1.320667">
		<name>70 - Cathead  (Y)</name>
		<sym>Waypoint</sym>
		<type>Symbol</type>
		<cmt>Cathead </cmt>
		<geoidheight>0</geoidheight>
	</wpt>
	<wpt lat="50.826000" lon="-1.315667">
		<name>71 - Mark  (Y)</name>
		<sym>Waypoint</sym>
		<type>Symbol</type>
		<cmt>Mark </cmt>
		<geoidheight>0</geoidheight>
	</wpt>
	<wpt lat="50.835833" lon="-1.311000">
		<name>72 - Hamble Point (YB)</name>
		<sym>Waypoint</sym>
		<type>Symbol</type>
		<cmt>Hamble Point</cmt>
		<geoidheight>0</geoidheight>
	</wpt>
	<wpt lat="50.830000" lon="-1.301167">
		<name>73 - Bald Head (G)</name>
		<sym>Waypoint</sym>
		<type>Symbol</type>
		<cmt>Bald Head</cmt>
		<geoidheight>0</geoidheight>
	</wpt>
	<wpt lat="50.827667" lon="-1.293167">
		<name>74 - Sposa  (Y)</name>
		<sym>Waypoint</sym>
		<type>Symbol</type>
		<cmt>Sposa </cmt>
		<geoidheight>0</geoidheight>
	</wpt>
	<wpt lat="50.880500" lon="-1.399667">
		<name>75 - Magazine  (Y)</name>
		<sym>Waypoint</sym>
		<type>Symbol</type>
		<cmt>Magazine </cmt>
		<geoidheight>0</geoidheight>
	</wpt>
	<wpt lat="50.876500" lon="-1.390833">
		<name>76 - Test (R)</name>
		<sym>Waypoint</sym>
		<type>Symbol</type>
		<cmt>Test</cmt>
		<geoidheight>0</geoidheight>
	</wpt>
	<wpt lat="50.840333" lon="-1.319833">
		<name>77 - Fawley Deep (G)</name>
		<sym>Waypoint</sym>
		<type>Symbol</type>
		<cmt>Fawley Deep</cmt>
		<geoidheight>0</geoidheight>
	</wpt>
	<wpt lat="50.825333" lon="-1.305017">
		<name>78 - Hook  (G)</name>
		<sym>Waypoint</sym>
		<type>Symbol</type>
		<cmt>Hook </cmt>
		<geoidheight>0</geoidheight>
	</wpt>
</gpx>